{
"type": "FeatureCollection";
"name": "POLICE_STATIONS",
"crs": { "type": "name", "properties": { "name": "urn:ogc:def:crs:OGC:1.3:CRS84" } },
"features": [
{ "type": "Feature", "properties": { "AREA": 0.0, "PERIMETER": 0.0, "POLOCATE_": 1, "POLOCATE_I": 1, "NAME": "Matelot Police Station", "CODE": "A" }, "geometry": { "type": "Point", "coordinates": [ -61.125584444493299, 10.815500546456478 ] } },
{ "type": "Feature", "properties": { "AREA": 0.0, "PERIMETER": 0.0, "POLOCATE_": 2, "POLOCATE_I": 1, "NAME": "Blanchisseuse Police Station", "CODE": "A" }, "geometry": { "type": "Point", "coordinates": [ -61.313887925340758, 10.795068615755536 ] } },
{ "type": "Feature", "properties": { "AREA": 0.0, "PERIMETER": 0.0, "POLOCATE_": 3, "POLOCATE_I": 1, "NAME": "Maracas Bay Police Station", "CODE": "A" }, "geometry": { "type": "Point", "coordinates": [ -61.444219823251935, 10.755439577169147 ] } },
{ "type": "Feature", "properties": { "AREA": 0.0, "PERIMETER": 0.0, "POLOCATE_": 4, "POLOCATE_I": 1, "NAME": "Sangre Grande Police Station", "CODE": "A" }, "geometry": { "type": "Point", "coordinates": [ -61.125040936024632, 10.584565139932614 ] } },
{ "type": "Feature", "properties": { "AREA": 0.0, "PERIMETER": 0.0, "POLOCATE_": 5, "POLOCATE_I": 1, "NAME": "Matura Police Station", "CODE": "A" }, "geometry": { "type": "Point", "coordinates": [ -61.066881363414367, 10.677126205971243 ] } },
{ "type": "Feature", "properties": { "AREA": 0.0, "PERIMETER": 0.0, "POLOCATE_": 6, "POLOCATE_I": 1, "NAME": "Maraval Police Station", "CODE": "A" }, "geometry": { "type": "Point", "coordinates": [ -61.511338579928484, 10.708537679621749 ] } },
{ "type": "Feature", "properties": { "AREA": 0.0, "PERIMETER": 0.0, "POLOCATE_": 7, "POLOCATE_I": 1, "NAME": "West End Police Station", "CODE": "A" }, "geometry": { "type": "Point", "coordinates": [ -61.561382705754681, 10.717719251963766 ] } },
{ "type": "Feature", "properties": { "AREA": 0.0, "PERIMETER": 0.0, "POLOCATE_": 8, "POLOCATE_I": 1, "NAME": "Maracas St.Joseph Police Station", "CODE": "A" }, "geometry": { "type": "Point", "coordinates": [ -61.41491302797052, 10.708918982818904 ] } },
{ "type": "Feature", "properties": { "AREA": 0.0, "PERIMETER": 0.0, "POLOCATE_": 9, "POLOCATE_I": 1, "NAME": "Tunapuna Police Station", "CODE": "A" }, "geometry": { "type": "Point", "coordinates": [ -61.389953569549093, 10.645054896124215 ] } },
{ "type": "Feature", "properties": { "AREA": 0.0, "PERIMETER": 0.0, "POLOCATE_": 10, "POLOCATE_I": 1, "NAME": "Santa Cruz Police Station", "CODE": "A" }, "geometry": { "type": "Point", "coordinates": [ -61.468883424977498, 10.715706311021775 ] } },
{ "type": "Feature", "properties": { "AREA": 0.0, "PERIMETER": 0.0, "POLOCATE_": 11, "POLOCATE_I": 1, "NAME": "Arima Police Station", "CODE": "A" }, "geometry": { "type": "Point", "coordinates": [ -61.28124338715034, 10.641945284167427 ] } },
{ "type": "Feature", "properties": { "AREA": 0.0, "PERIMETER": 0.0, "POLOCATE_": 12, "POLOCATE_I": 1, "NAME": "Arouca Police Station", "CODE": "A" }, "geometry": { "type": "Point", "coordinates": [ -61.340149895380392, 10.633230970571349 ] } },
{ "type": "Feature", "properties": { "AREA": 0.0, "PERIMETER": 0.0, "POLOCATE_": 13, "POLOCATE_I": 1, "NAME": "Four Roads Police Station", "CODE": "A" }, "geometry": { "type": "Point", "coordinates": [ -61.552745984913592, 10.686603465138148 ] } },
{ "type": "Feature", "properties": { "AREA": 0.0, "PERIMETER": 0.0, "POLOCATE_": 14, "POLOCATE_I": 1, "NAME": "Belmont Police Station", "CODE": "A" }, "geometry": { "type": "Point", "coordinates": [ -61.509060214687075, 10.670543939096627 ] } },
{ "type": "Feature", "properties": { "AREA": 0.0, "PERIMETER": 0.0, "POLOCATE_": 15, "POLOCATE_I": 1, "NAME": "Morvant\/Divisional Headquarters", "CODE": "B" }, "geometry": { "type": "Point", "coordinates": [ -61.477515811454168, 10.661965539798061 ] } },
{ "type": "Feature", "properties": { "AREA": 0.0, "PERIMETER": 0.0, "POLOCATE_": 16, "POLOCATE_I": 1, "NAME": "St. James Police Station", "CODE": "A" }, "geometry": { "type": "Point", "coordinates": [ -61.535451793405045, 10.671926507422244 ] } },
{ "type": "Feature", "properties": { "AREA": 0.0, "PERIMETER": 0.0, "POLOCATE_": 17, "POLOCATE_I": 1, "NAME": "St. Joseph Police Station", "CODE": "A" }, "geometry": { "type": "Point", "coordinates": [ -61.413335735869289, 10.651185250014848 ] } },
{ "type": "Feature", "properties": { "AREA": 0.0, "PERIMETER": 0.0, "POLOCATE_": 18, "POLOCATE_I": 1, "NAME": "San Juan Police Station", "CODE": "A" }, "geometry": { "type": "Point", "coordinates": [ -61.44845180435162, 10.653709533300308 ] } },
{ "type": "Feature", "properties": { "AREA": 0.0, "PERIMETER": 0.0, "POLOCATE_": 19, "POLOCATE_I": 1, "NAME": "Central Police Station", "CODE": "A" }, "geometry": { "type": "Point", "coordinates": [ -61.519300016631725, 10.655623345069801 ] } },
{ "type": "Feature", "properties": { "AREA": 0.0, "PERIMETER": 0.0, "POLOCATE_": 21, "POLOCATE_I": 1, "NAME": "Malabar Police Post", "CODE": "C" }, "geometry": { "type": "Point", "coordinates": [ -61.279164173447484, 10.622058481936724 ] } },
{ "type": "Feature", "properties": { "AREA": 0.0, "PERIMETER": 0.0, "POLOCATE_": 22, "POLOCATE_I": 1, "NAME": "Chaguanas Police Station", "CODE": "A" }, "geometry": { "type": "Point", "coordinates": [ -61.414251889594823, 10.517060058676044 ] } },
{ "type": "Feature", "properties": { "AREA": 0.0, "PERIMETER": 0.0, "POLOCATE_": 23, "POLOCATE_I": 1, "NAME": "Piarco Police Station", "CODE": "A" }, "geometry": { "type": "Point", "coordinates": [ -61.347166124386675, 10.591190004738335 ] } },
{ "type": "Feature", "properties": { "AREA": 0.0, "PERIMETER": 0.0, "POLOCATE_": 24, "POLOCATE_I": 1, "NAME": "Cunupia Police Station", "CODE": "A" }, "geometry": { "type": "Point", "coordinates": [ -61.374109324335244, 10.549344247851852 ] } },
{ "type": "Feature", "properties": { "AREA": 0.0, "PERIMETER": 0.0, "POLOCATE_": 25, "POLOCATE_I": 1, "NAME": "La Horquetta\/ Divisional Headqua", "CODE": "B" }, "geometry": { "type": "Point", "coordinates": [ -61.277233271209681, 10.596817094055371 ] } },
{ "type": "Feature", "properties": { "AREA": 0.0, "PERIMETER": 0.0, "POLOCATE_": 26, "POLOCATE_I": 1, "NAME": "Cumuto Police Station", "CODE": "A" }, "geometry": { "type": "Point", "coordinates": [ -61.216199786265385, 10.593072486647792 ] } },
{ "type": "Feature", "properties": { "AREA": 0.0, "PERIMETER": 0.0, "POLOCATE_": 27, "POLOCATE_I": 1, "NAME": "San Rafael Police Station", "CODE": "A" }, "geometry": { "type": "Point", "coordinates": [ -61.273922695160572, 10.576576581665359 ] } },
{ "type": "Feature", "properties": { "AREA": 0.0, "PERIMETER": 0.0, "POLOCATE_": 28, "POLOCATE_I": 1, "NAME": "Manzanilla Police Station", "CODE": "A" }, "geometry": { "type": "Point", "coordinates": [ -61.074321087587748, 10.530295905114915 ] } },
{ "type": "Feature", "properties": { "AREA": 0.0, "PERIMETER": 0.0, "POLOCATE_": 29, "POLOCATE_I": 1, "NAME": "Freeport Police Station", "CODE": "A" }, "geometry": { "type": "Point", "coordinates": [ -61.413044178698037, 10.4602532487242 ] } },
{ "type": "Feature", "properties": { "AREA": 0.0, "PERIMETER": 0.0, "POLOCATE_": 30, "POLOCATE_I": 1, "NAME": "Biche Police Station", "CODE": "A" }, "geometry": { "type": "Point", "coordinates": [ -61.132362708599189, 10.431807299043154 ] } },
{ "type": "Feature", "properties": { "AREA": 0.0, "PERIMETER": 0.0, "POLOCATE_": 31, "POLOCATE_I": 1, "NAME": "Couva Police Station", "CODE": "A" }, "geometry": { "type": "Point", "coordinates": [ -61.458704784691029, 10.418865581965827 ] } },
{ "type": "Feature", "properties": { "AREA": 0.0, "PERIMETER": 0.0, "POLOCATE_": 32, "POLOCATE_I": 1, "NAME": "Rio Claro Police Station", "CODE": "A" }, "geometry": { "type": "Point", "coordinates": [ -61.175515606643366, 10.3051321117629 ] } },
{ "type": "Feature", "properties": { "AREA": 0.0, "PERIMETER": 0.0, "POLOCATE_": 33, "POLOCATE_I": 1, "NAME": "Gran Couva Police Station", "CODE": "A" }, "geometry": { "type": "Point", "coordinates": [ -61.373453099860107, 10.404668710029814 ] } },
{ "type": "Feature", "properties": { "AREA": 0.0, "PERIMETER": 0.0, "POLOCATE_": 34, "POLOCATE_I": 1, "NAME": "Mayaro Police Station", "CODE": "A" }, "geometry": { "type": "Point", "coordinates": [ -61.005647400492379, 10.295262655472927 ] } },
{ "type": "Feature", "properties": { "AREA": 0.0, "PERIMETER": 0.0, "POLOCATE_": 35, "POLOCATE_I": 1, "NAME": "Gasparillo Police Station", "CODE": "A" }, "geometry": { "type": "Point", "coordinates": [ -61.426617164229292, 10.317433122037706 ] } },
{ "type": "Feature", "properties": { "AREA": 0.0, "PERIMETER": 0.0, "POLOCATE_": 36, "POLOCATE_I": 1, "NAME": "St. Margaret Police Station", "CODE": "A" }, "geometry": { "type": "Point", "coordinates": [ -61.456848881114887, 10.341422182667174 ] } },
{ "type": "Feature", "properties": { "AREA": 0.0, "PERIMETER": 0.0, "POLOCATE_": 37, "POLOCATE_I": 1, "NAME": "Marabella Police Station", "CODE": "A" }, "geometry": { "type": "Point", "coordinates": [ -61.449130356015694, 10.301088995745305 ] } },
{ "type": "Feature", "properties": { "AREA": 0.0, "PERIMETER": 0.0, "POLOCATE_": 38, "POLOCATE_I": 1, "NAME": "Tableland Police Station", "CODE": "A" }, "geometry": { "type": "Point", "coordinates": [ -61.269681812933804, 10.279550633534283 ] } },
{ "type": "Feature", "properties": { "AREA": 0.0, "PERIMETER": 0.0, "POLOCATE_": 39, "POLOCATE_I": 1, "NAME": "Princes Town Police Station", "CODE": "A" }, "geometry": { "type": "Point", "coordinates": [ -61.375929677624754, 10.272510403015147 ] } },
{ "type": "Feature", "properties": { "AREA": 0.0, "PERIMETER": 0.0, "POLOCATE_": 40, "POLOCATE_I": 1, "NAME": "Ste. Madeleine Police Station", "CODE": "A" }, "geometry": { "type": "Point", "coordinates": [ -61.431358692804679, 10.271575045427182 ] } },
{ "type": "Feature", "properties": { "AREA": 0.0, "PERIMETER": 0.0, "POLOCATE_": 41, "POLOCATE_I": 1, "NAME": "Mon Repos Police Station", "CODE": "A" }, "geometry": { "type": "Point", "coordinates": [ -61.449446790729063, 10.279752899416733 ] } },
{ "type": "Feature", "properties": { "AREA": 0.0, "PERIMETER": 0.0, "POLOCATE_": 43, "POLOCATE_I": 1, "NAME": "Barrackpore Police Station", "CODE": "A" }, "geometry": { "type": "Point", "coordinates": [ -61.395106070099622, 10.207689154337523 ] } },
{ "type": "Feature", "properties": { "AREA": 0.0, "PERIMETER": 0.0, "POLOCATE_": 44, "POLOCATE_I": 1, "NAME": "Oropouche Police Station", "CODE": "A" }, "geometry": { "type": "Point", "coordinates": [ -61.53305346254551, 10.225276941915686 ] } },
{ "type": "Feature", "properties": { "AREA": 0.0, "PERIMETER": 0.0, "POLOCATE_": 45, "POLOCATE_I": 1, "NAME": "Moruga Police Station", "CODE": "A" }, "geometry": { "type": "Point", "coordinates": [ -61.282084537149025, 10.089244210934618 ] } },
{ "type": "Feature", "properties": { "AREA": 0.0, "PERIMETER": 0.0, "POLOCATE_": 46, "POLOCATE_I": 1, "NAME": "Guapo Police Station", "CODE": "A" }, "geometry": { "type": "Point", "coordinates": [ -61.637997070520953, 10.19390314601422 ] } },
{ "type": "Feature", "properties": { "AREA": 0.0, "PERIMETER": 0.0, "POLOCATE_": 47, "POLOCATE_I": 1, "NAME": "Penal Police Station", "CODE": "A" }, "geometry": { "type": "Point", "coordinates": [ -61.458619939074801, 10.168304479068784 ] } },
{ "type": "Feature", "properties": { "AREA": 0.0, "PERIMETER": 0.0, "POLOCATE_": 48, "POLOCATE_I": 1, "NAME": "Fyzabad Police Station", "CODE": "A" }, "geometry": { "type": "Point", "coordinates": [ -61.546658389503364, 10.176957567394984 ] } },
{ "type": "Feature", "properties": { "AREA": 0.0, "PERIMETER": 0.0, "POLOCATE_": 50, "POLOCATE_I": 1, "NAME": "Santa Flora Police Station", "CODE": "A" }, "geometry": { "type": "Point", "coordinates": [ -61.558967395801965, 10.113211477566979 ] } },
{ "type": "Feature", "properties": { "AREA": 0.0, "PERIMETER": 0.0, "POLOCATE_": 51, "POLOCATE_I": 1, "NAME": "Cedros Police Station", "CODE": "A" }, "geometry": { "type": "Point", "coordinates": [ -61.86644523085706, 10.090502949325025 ] } },
{ "type": "Feature", "properties": { "AREA": 0.0, "PERIMETER": 0.0, "POLOCATE_": 52, "POLOCATE_I": 1, "NAME": "Point Fortin Police Station", "CODE": "A" }, "geometry": { "type": "Point", "coordinates": [ -61.685150048663367, 10.179526872764223 ] } },
{ "type": "Feature", "properties": { "AREA": 0.0, "PERIMETER": 0.0, "POLOCATE_": 53, "POLOCATE_I": 1, "NAME": "La Brea Police Station", "CODE": "A" }, "geometry": { "type": "Point", "coordinates": [ -61.623856211043559, 10.246024509891891 ] } },
{ "type": "Feature", "properties": { "AREA": 0.0, "PERIMETER": 0.0, "POLOCATE_": 54, "POLOCATE_I": 1, "NAME": "Erin Police Station", "CODE": "A" }, "geometry": { "type": "Point", "coordinates": [ -61.656835669320351, 10.073512709280383 ] } },
{ "type": "Feature", "properties": { "AREA": 0.0, "PERIMETER": 0.0, "POLOCATE_": 55, "POLOCATE_I": 1, "NAME": "Carenage Police Station", "CODE": "A" }, "geometry": { "type": "Point", "coordinates": [ -61.59174613188344, 10.686630269139396 ] } },
{ "type": "Feature", "properties": { "AREA": 0.0, "PERIMETER": 0.0, "POLOCATE_": 56, "POLOCATE_I": 1, "NAME": "St.Clair Police Station", "CODE": "A" }, "geometry": { "type": "Point", "coordinates": [ -61.520965540524344, 10.674501834712183 ] } },
{ "type": "Feature", "properties": { "AREA": 0.0, "PERIMETER": 0.0, "POLOCATE_": 57, "POLOCATE_I": 1, "NAME": "Caroni Police Station", "CODE": "A" }, "geometry": { "type": "Point", "coordinates": [ -61.388500608885984, 10.606330757363724 ] } },
{ "type": "Feature", "properties": { "AREA": 0.0, "PERIMETER": 0.0, "POLOCATE_": 58, "POLOCATE_I": 1, "NAME": "Maloney Police Post", "CODE": "C" }, "geometry": { "type": "Point", "coordinates": [ -61.317609173862415, 10.616069345531271 ] } },
{ "type": "Feature", "properties": { "AREA": 0.0, "PERIMETER": 0.0, "POLOCATE_": 59, "POLOCATE_I": 1, "NAME": "Toco Police Station", "CODE": "A" }, "geometry": { "type": "Point", "coordinates": [ -60.943412482712901, 10.83270769400912 ] } },
{ "type": "Feature", "properties": { "AREA": 0.0, "PERIMETER": 0.0, "POLOCATE_": 60, "POLOCATE_I": 1, "NAME": "Brasso Police Station", "CODE": "A" }, "geometry": { "type": "Point", "coordinates": [ -61.323148240560485, 10.417964915734965 ] } },
{ "type": "Feature", "properties": { "AREA": 0.0, "PERIMETER": 0.0, "POLOCATE_": 61, "POLOCATE_I": 1, "NAME": "St. Barbs Police Post", "CODE": "C" }, "geometry": { "type": "Point", "coordinates": [ -61.489932564314877, 10.660306516930994 ] } },
{ "type": "Feature", "properties": { "AREA": 0.0, "PERIMETER": 0.0, "POLOCATE_": 62, "POLOCATE_I": 1, "NAME": "Divisional Headquarters", "CODE": "D" }, "geometry": { "type": "Point", "coordinates": [ -61.52319438596512, 10.672469440528475 ] } },
{ "type": "Feature", "properties": { "AREA": 0.0, "PERIMETER": 0.0, "POLOCATE_": 63, "POLOCATE_I": 1, "NAME": "Woodbrook Police Station", "CODE": "A" }, "geometry": { "type": "Point", "coordinates": [ -61.520829434689396, 10.661968390967917 ] } },
{ "type": "Feature", "properties": { "AREA": 0.0, "PERIMETER": 0.0, "POLOCATE_": 64, "POLOCATE_I": 1, "NAME": "Midtown Patrol Branch", "CODE": "E" }, "geometry": { "type": "Point", "coordinates": [ -61.504416442390308, 10.651180918962025 ] } },
{ "type": "Feature", "properties": { "AREA": 0.0, "PERIMETER": 0.0, "POLOCATE_": 65, "POLOCATE_I": 1, "NAME": "Patna Police Post", "CODE": "C" }, "geometry": { "type": "Point", "coordinates": [ -61.559708856324328, 10.73226207956257 ] } },
{ "type": "Feature", "properties": { "AREA": 0.0, "PERIMETER": 0.0, "POLOCATE_": 66, "POLOCATE_I": 1, "NAME": "Cap - De - Ville Police Post", "CODE": "C" }, "geometry": { "type": "Point", "coordinates": [ -61.702339901409353, 10.143307369470932 ] } },
{ "type": "Feature", "properties": { "AREA": 0.0, "PERIMETER": 0.0, "POLOCATE_": 67, "POLOCATE_I": 1, "NAME": "Southern Divisional Headquarters", "CODE": "D" }, "geometry": { "type": "Point", "coordinates": [ -61.466051631362944, 10.279393409244967 ] } },
{ "type": "Feature", "properties": { "AREA": 0.0, "PERIMETER": 0.0, "POLOCATE_": 68, "POLOCATE_I": 1, "NAME": "St.Mary's Police Post", "CODE": "C" }, "geometry": { "type": "Point", "coordinates": [ -61.311398478574105, 10.204765676265916 ] } },
{ "type": "Feature", "properties": { "AREA": 0.0, "PERIMETER": 0.0, "POLOCATE_": 69, "POLOCATE_I": 1, "NAME": "Longdenville Police Post", "CODE": "C" }, "geometry": { "type": "Point", "coordinates": [ -61.378810393099869, 10.514715367813965 ] } },
{ "type": "Feature", "properties": { "AREA": 0.0, "PERIMETER": 0.0, "POLOCATE_": 70, "POLOCATE_I": 1, "NAME": "Debe\/Penal Police Post", "CODE": "C" }, "geometry": { "type": "Point", "coordinates": [ -61.447526895364994, 10.206179810580446 ] } },
{ "type": "Feature", "properties": { "AREA": 0.0, "PERIMETER": 0.0, "POLOCATE_": 49, "POLOCATE_I": 1, "NAME": "Siparia Police Station", "CODE": "A" }, "geometry": { "type": "Point", "coordinates": [ -61.505631708543611, 10.144266040370894 ] } },
{ "type": "Feature", "properties": { "AREA": 0.0, "PERIMETER": 0.0, "POLOCATE_": 71, "POLOCATE_I": 1, "NAME": "South Western Divisional Headqua", "CODE": "D" }, "geometry": { "type": "Point", "coordinates": [ -61.504766497588541, 10.144352295885144 ] } },
{ "type": "Feature", "properties": { "AREA": 0.0, "PERIMETER": 0.0, "POLOCATE_": 72, "POLOCATE_I": 1, "NAME": "Valencia Police Post", "CODE": "C" }, "geometry": { "type": "Point", "coordinates": [ -61.203268939898607, 10.651584416860914 ] } },
{ "type": "Feature", "properties": { "AREA": 0.0, "PERIMETER": 0.0, "POLOCATE_": 73, "POLOCATE_I": 1, "NAME": "San Juan Sub-Station", "CODE": "E" }, "geometry": { "type": "Point", "coordinates": [ -61.450700497421003, 10.649703244801461 ] } },
{ "type": "Feature", "properties": { "AREA": 0.0, "PERIMETER": 0.0, "POLOCATE_": 74, "POLOCATE_I": 1, "NAME": "Barataria\/El Socorro Police Stat", "CODE": "A" }, "geometry": { "type": "Point", "coordinates": [ -61.458912643979723, 10.637886126184304 ] } },
{ "type": "Feature", "properties": { "AREA": 0.0, "PERIMETER": 0.0, "POLOCATE_": 75, "POLOCATE_I": 1, "NAME": "Pinto Police Post", "CODE": "C" }, "geometry": { "type": "Point", "coordinates": [ -61.262905212392155, 10.619234861039137 ] } }
]
}
